City_ID,City,Country,Lat,Lng,Max Temp,Humidity,Cloudiness,Wind Speed,Weather Description
0,Taltal,CL,-25.4,-70.4833,61.3,78,20,5.19,few clouds
1,Castro,BR,-24.7911,-50.0119,60.78,72,95,3.87,overcast clouds
2,Arraial Do Cabo,BR,-22.9661,-42.0278,75.16,83,40,6.91,scattered clouds
3,Geraldton,AU,-28.7667,114.6,55.81,82,93,18.59,overcast clouds
4,Qasigiannguit,GL,68.8193,-51.1922,39.45,81,74,3.31,broken clouds
5,Punta Arenas,CL,-53.15,-70.9167,41.11,75,0,11.83,clear sky
6,Vaini,TO,-21.2,-175.2,77.16,83,75,13.8,broken clouds
7,Poronaysk,RU,49.2167,143.1167,53.08,72,72,7.11,broken clouds
8,Alexandria,EG,31.2156,29.9553,69.76,73,0,9.22,clear sky
9,Faya,SA,18.3851,42.4509,70.32,49,6,1.86,clear sky
10,Jamestown,US,42.097,-79.2353,87.12,53,40,6.91,scattered clouds
11,Mnogovershinnyy,RU,53.9353,139.9242,39.85,91,96,5.19,overcast clouds
12,Ko Samui,TH,9.5357,99.9357,83.71,76,100,23.17,moderate rain
13,Mataura,NZ,-46.1927,168.8643,49.48,83,72,1.99,broken clouds
14,Avera,US,33.194,-82.5271,89.47,88,100,5.77,overcast clouds
15,Bitam,GA,2.076,11.5007,68.54,99,99,1.72,moderate rain
16,Roald,NO,62.5833,6.1333,57.9,87,20,3.44,few clouds
17,Livingston,GB,55.9029,-3.5226,55.27,82,0,2.64,clear sky
18,Okhotsk,RU,59.3833,143.3,43.52,85,100,1.48,overcast clouds
19,New Norfolk,AU,-42.7826,147.0587,55.92,75,100,1.99,moderate rain
20,Hofn,IS,64.2539,-15.2082,47.1,95,94,12.33,overcast clouds
21,Leningradskiy,RU,69.3833,178.4167,40.57,77,14,13.73,few clouds
22,Mersing,MY,2.4312,103.8405,76.91,94,78,4.61,broken clouds
23,Berlevag,NO,70.8578,29.0864,39.15,70,0,4.61,clear sky
24,Yellowknife,CA,62.456,-114.3525,50.52,53,75,5.01,broken clouds
25,Aquiraz,BR,-3.9014,-38.3911,82.49,80,10,6.71,clear sky
26,Mount Gambier,AU,-37.8333,140.7667,55.31,71,100,14.97,overcast clouds
27,Monrovia,LR,6.3005,-10.7969,76.77,85,97,8.77,moderate rain
28,Cape Town,ZA,-33.9258,18.4232,70.27,30,0,12.48,clear sky
29,Kapaa,US,22.0752,-159.319,82.38,69,75,3.0,broken clouds
30,Marsh Harbour,BS,26.5412,-77.0636,79.95,75,100,14.41,overcast clouds
31,San Juan,AR,-31.5375,-68.5364,68.72,48,0,8.46,clear sky
32,Khash,IR,28.2211,61.2158,79.65,44,0,3.78,clear sky
33,San Patricio,US,28.017,-97.5169,93.06,69,9,16.44,clear sky
34,Chapais,CA,49.7834,-74.8492,78.58,30,64,8.19,broken clouds
35,Matagami,CA,49.7502,-77.6328,82.51,42,1,9.46,clear sky
36,Hobart,AU,-42.8794,147.3294,56.26,77,75,1.01,light rain
37,Puerto Ayora,EC,-0.7393,-90.3518,80.56,88,35,5.99,scattered clouds
38,Nanortalik,GL,60.1432,-45.2371,44.83,72,100,15.12,overcast clouds
39,Busselton,AU,-33.65,115.3333,46.09,77,0,8.39,clear sky
40,Hamilton,US,39.1834,-84.5333,84.15,66,20,1.99,few clouds
41,Mumbwa,ZM,-14.9783,27.0619,54.01,64,52,7.11,broken clouds
42,Jacqueville,CI,5.2052,-4.4146,80.51,81,46,14.05,scattered clouds
43,Albany,US,42.6001,-73.9662,90.45,62,45,7.47,scattered clouds
44,Pevek,RU,69.7008,170.3133,47.37,68,35,12.77,scattered clouds
45,Norman Wells,CA,65.282,-126.8329,46.44,81,75,5.75,light rain
46,Tshikapa,CD,-6.4167,20.8,77.16,47,67,2.21,broken clouds
47,Ushuaia,AR,-54.8,-68.3,38.86,87,20,6.91,few clouds
48,Ribeira Grande,PT,38.5167,-28.7,65.21,87,100,7.72,overcast clouds
49,Basco,PH,20.4487,121.9702,83.66,75,100,10.6,overcast clouds
50,Hilo,US,19.7297,-155.09,80.33,73,75,13.8,light rain
51,Khatanga,RU,71.9667,102.5,33.93,93,96,6.98,overcast clouds
52,Atuona,PF,-9.8,-139.0333,79.93,64,63,6.69,broken clouds
53,Port Elizabeth,ZA,-33.918,25.5701,50.29,81,20,4.61,few clouds
54,Tuktoyaktuk,CA,69.4541,-133.0374,35.6,69,90,10.36,overcast clouds
55,Saint-Philippe,RE,-21.3585,55.7679,72.99,86,74,12.68,light rain
56,Ayagoz,KZ,47.9714,80.4392,47.03,67,28,8.97,scattered clouds
57,Bredasdorp,ZA,-34.5322,20.0403,54.72,44,4,6.64,clear sky
58,Georgetown,MY,5.4112,100.3354,79.9,92,20,1.99,few clouds
59,San Cristobal,VE,7.7669,-72.225,71.78,92,100,2.95,overcast clouds
60,Vila Franca Do Campo,PT,37.7167,-25.4333,64.81,85,99,2.73,overcast clouds
61,Thompson,CA,55.7435,-97.8558,62.76,67,90,9.22,overcast clouds
62,Riyadh,SA,24.6877,46.7219,98.65,10,0,4.61,clear sky
63,Foam Lake,CA,51.65,-103.5343,59.02,56,87,21.43,overcast clouds
64,Praia,CV,14.9215,-23.5087,73.94,78,75,18.41,broken clouds
65,Hithadhoo,MV,-0.6,73.0833,82.65,73,9,12.03,clear sky
66,Dunedin,NZ,-45.8742,170.5036,47.8,89,98,1.01,overcast clouds
67,Brae,GB,60.3964,-1.353,49.91,84,43,4.0,scattered clouds
68,East London,ZA,-33.0153,27.9116,62.58,39,0,9.62,clear sky
69,Beisfjord,NO,68.3751,17.5988,62.04,52,73,2.77,broken clouds
70,Butaritari,KI,3.0707,172.7902,82.4,73,13,7.96,light rain
71,Lima,PE,-12.0432,-77.0282,67.89,73,90,8.05,overcast clouds
72,Moose Factory,CA,51.2585,-80.6094,71.58,68,40,12.66,light rain
73,Beauvais,FR,49.4167,2.0,65.7,89,75,8.05,broken clouds
74,Hermanus,ZA,-34.4187,19.2345,65.89,43,1,12.03,clear sky
75,Neuquen,AR,-38.9516,-68.0591,51.69,62,0,4.61,clear sky
76,Mar Del Plata,AR,-38.0023,-57.5575,54.12,66,0,7.0,clear sky
77,Yuli,NG,9.6989,10.2744,76.96,81,85,4.07,light rain
78,Zitlala,MX,17.6333,-99.0833,72.93,55,99,5.37,overcast clouds
79,Grand-Santi,GF,4.25,-54.3833,75.18,93,98,3.94,light rain
80,Marzuq,YE,14.4,46.4667,81.9,34,29,4.7,scattered clouds
81,Moroni,KM,-11.7022,43.2551,76.96,75,73,16.08,broken clouds
82,Saldanha,ZA,-33.0117,17.9442,57.25,39,3,23.87,clear sky
83,Ahipara,NZ,-35.1667,173.1667,59.49,89,100,11.77,light rain
84,Mocuba,MZ,-16.8392,36.9856,61.9,96,91,3.65,overcast clouds
85,Hirara,JP,24.8,125.2833,79.07,94,75,1.14,broken clouds
86,Hualmay,PE,-11.0964,-77.6139,66.81,76,36,10.96,scattered clouds
87,Rikitea,PF,-23.1203,-134.9692,76.64,84,98,15.88,overcast clouds
88,Kieta,PG,-6.2167,155.6333,81.21,82,97,4.59,light rain
89,Chokurdakh,RU,70.6333,147.9167,38.05,71,99,6.13,overcast clouds
90,Lakes Entrance,AU,-37.8811,147.981,51.19,69,100,10.2,overcast clouds
91,Avarua,CK,-21.2078,-159.775,78.85,57,75,3.44,broken clouds
92,Nome,US,64.5011,-165.4064,38.16,80,90,11.5,overcast clouds
93,Saint George,US,37.1041,-113.5841,102.67,10,1,8.99,clear sky
94,Xichang,CN,27.8964,102.2634,65.07,97,98,1.95,light rain
95,Tobol,KZ,52.6844,62.5794,59.61,39,48,0.45,scattered clouds
96,Mantua,IT,45.1667,10.7833,69.69,89,100,1.01,overcast clouds
97,Barrow,US,71.2906,-156.7887,30.22,93,90,13.8,mist
98,Nelson Bay,AU,-32.7167,152.15,47.68,90,20,5.86,few clouds
99,Carrollton,US,32.9537,-96.8903,90.59,59,75,3.0,broken clouds
100,Matamoros,MX,25.5333,-103.25,97.11,12,0,10.51,clear sky
101,Paris,FR,48.8534,2.3488,66.15,74,0,3.0,clear sky
102,Dikson,RU,73.5069,80.5464,29.41,90,100,11.92,overcast clouds
103,Beringovskiy,RU,63.05,179.3167,34.97,98,100,4.29,light rain
104,Isangel,VU,-19.55,169.2667,71.71,68,75,11.36,broken clouds
105,Nishihara,JP,26.1842,127.7558,74.86,94,75,7.16,moderate rain
106,Lilongwe,MW,-13.9669,33.7873,53.96,83,73,6.8,broken clouds
107,Sekoma,BW,-24.4,23.8833,49.28,51,0,11.12,clear sky
108,Kungurtug,RU,50.5994,97.5228,36.63,94,100,2.66,overcast clouds
109,Torbay,CA,47.6666,-52.7314,47.28,85,75,14.97,broken clouds
110,Acarau,BR,-2.8856,-40.12,78.17,85,34,9.69,scattered clouds
111,Clarksburg,US,39.2807,-80.3445,88.48,46,1,3.49,clear sky
112,Port-Gentil,GA,-0.7193,8.7815,80.56,89,90,10.36,overcast clouds
113,Canton,CN,23.1167,113.25,80.94,82,69,4.97,broken clouds
114,Qaanaaq,GL,77.484,-69.3632,40.42,79,53,5.48,broken clouds
115,Kodinsk,RU,58.6881,99.1844,43.88,86,62,3.76,light rain
116,Labrea,BR,-7.2586,-64.7981,75.85,96,97,2.82,heavy intensity rain
117,Kodiak,US,57.79,-152.4072,55.63,53,14,6.8,few clouds
118,Touros,BR,-5.1989,-35.4608,76.1,85,14,12.84,few clouds
119,Humaita,BR,-7.5061,-63.0208,80.38,76,99,3.2,light rain
120,Nikolskoye,RU,59.7035,30.7861,61.39,79,66,3.71,broken clouds
121,Port Keats,AU,-14.25,129.55,65.17,41,18,7.0,few clouds
122,Cherskiy,RU,68.75,161.3,66.52,37,100,19.84,overcast clouds
123,Chiredzi,ZW,-21.05,31.6667,59.67,84,94,5.55,light rain
124,Matai,TZ,-8.3,31.5167,60.24,96,16,7.78,few clouds
125,Barkot,IN,30.8167,78.2,65.39,72,46,4.61,scattered clouds
126,Bluff,NZ,-46.6,168.3333,49.8,85,66,9.24,broken clouds
127,Melfi,IT,40.9965,15.6514,66.49,70,49,6.82,scattered clouds
128,Bambous Virieux,MU,-20.3428,57.7575,75.45,83,75,12.71,light rain
129,Nizhnevartovsk,RU,60.9344,76.5531,39.22,87,0,0.0,clear sky
130,Sadovoye,RU,47.7764,44.5089,61.02,82,100,7.7,overcast clouds
131,Channel-Port Aux Basques,CA,47.5702,-59.1367,50.67,66,8,12.44,clear sky
132,Tiksi,RU,71.6872,128.8694,44.6,62,100,1.45,overcast clouds
133,Sakhnovshchyna,UA,49.1517,35.872,53.37,95,14,6.51,few clouds
134,Belmonte,BR,-15.8631,-38.8828,77.5,87,12,6.82,few clouds
135,Tura,IN,25.5198,90.2201,71.69,98,80,7.45,heavy intensity rain
136,Bethel,US,41.3712,-73.414,92.48,49,1,9.22,clear sky
137,Tasiilaq,GL,65.6145,-37.6368,42.96,91,98,5.12,overcast clouds
138,Sept-Iles,CA,50.2001,-66.3821,59.52,65,75,1.01,broken clouds
139,Shar,KZ,49.5886,81.0453,49.42,85,1,2.51,clear sky
140,Fortuna,US,40.5982,-124.1573,71.19,53,1,5.01,clear sky
141,Carnarvon,AU,-24.8667,113.6333,60.87,72,90,6.91,overcast clouds
142,Klyuchi,RU,52.2667,79.1667,58.03,51,0,0.67,clear sky
143,Zyryanskoye,RU,56.8306,86.6258,54.32,97,100,9.24,overcast clouds
144,Otjimbingwe,NA,-22.35,16.1333,59.85,36,0,7.74,clear sky
145,Mahebourg,MU,-20.4081,57.7,75.49,83,75,10.36,light rain
146,Mitsamiouli,KM,-11.3847,43.2844,78.71,69,47,15.46,scattered clouds
147,Skibbereen,IE,51.55,-9.2667,49.8,79,99,4.47,overcast clouds
148,Krasnoselkup,RU,65.7,82.4667,32.77,80,41,7.02,scattered clouds
149,Sinnamary,GF,5.3833,-52.95,76.06,89,100,7.58,overcast clouds
150,Vagur,FO,61.4732,-6.8119,48.76,97,100,16.98,overcast clouds
151,Provideniya,RU,64.3833,-173.3,44.71,61,75,6.71,broken clouds
152,Kudahuvadhoo,MV,2.6708,72.8944,82.72,75,52,14.25,broken clouds
153,Aripuana,BR,-9.1667,-60.6333,80.35,68,100,0.51,overcast clouds
154,Teya,RU,60.3778,92.6267,42.75,97,100,2.44,light rain
155,Port Macquarie,AU,-31.4333,152.9167,46.38,65,4,4.88,clear sky
156,Portland,US,45.5234,-122.6762,63.9,58,90,1.99,overcast clouds
157,Sobolevo,RU,54.4299,31.8996,54.86,92,55,6.26,broken clouds
158,Egham,GB,51.4316,-0.5524,64.42,83,10,8.05,clear sky
159,Olinda,BR,-8.0089,-34.8553,78.53,69,40,11.56,scattered clouds
160,Chuy,UY,-33.6971,-53.4616,50.77,79,98,5.32,overcast clouds
161,Atasu,KZ,48.6814,71.6433,55.27,38,73,9.89,broken clouds
162,Maiduguri,NG,11.8464,13.1603,90.34,38,61,7.29,broken clouds
163,Dyurtyuli,RU,55.4911,54.8688,55.51,65,0,2.42,clear sky
164,Bilibino,RU,68.0546,166.4372,65.35,43,6,5.82,clear sky
165,Watertown,US,42.3709,-71.1828,93.52,41,1,4.0,clear sky
166,Pachora,IN,20.6667,75.35,85.1,62,71,6.02,broken clouds
167,Minna,NG,9.6139,6.5569,78.57,77,95,7.49,overcast clouds
168,Port Hardy,CA,50.6996,-127.4199,55.58,71,75,14.97,broken clouds
169,Cabedelo,BR,-6.9811,-34.8339,77.67,86,37,13.0,scattered clouds
170,Olga,RU,43.7444,135.2892,60.62,71,0,4.7,clear sky
171,Kamenka,RU,51.3223,42.7678,54.45,93,55,6.93,broken clouds
172,Lebu,CL,-37.6167,-73.65,49.46,77,96,3.38,overcast clouds
173,Fort Nelson,CA,58.8053,-122.7002,56.79,67,75,2.3,broken clouds
174,Ponta Do Sol,PT,32.6667,-17.1,66.83,75,3,4.79,clear sky
175,Korampallam,IN,8.7667,78.1,82.42,70,98,5.5,overcast clouds
176,Port Alfred,ZA,-33.5906,26.891,64.6,35,0,8.68,clear sky
177,Komagane,JP,35.7296,137.9396,63.77,78,100,3.62,overcast clouds
178,Ust-Tsilma,RU,65.441,52.1498,36.05,67,8,6.06,clear sky
179,Saint-Georges,GD,12.0564,-61.7485,83.88,74,20,17.27,few clouds
180,Uryupinsk,RU,50.8047,42.0138,55.08,92,47,6.13,scattered clouds
181,Elizabeth City,US,36.2946,-76.2511,91.0,67,1,10.36,clear sky
182,Upernavik,GL,72.7868,-56.1549,37.89,84,70,3.83,broken clouds
183,Banjar,ID,-8.19,114.9675,76.86,88,15,4.5,few clouds
184,Bowen,AU,-20.0167,148.2333,64.62,77,86,10.76,overcast clouds
185,Luderitz,NA,-26.6481,15.1594,69.28,31,0,9.31,clear sky
186,Yerbogachen,RU,61.2767,108.0108,41.25,59,2,10.89,clear sky
187,Ponta Delgada,PT,37.7333,-25.6667,65.12,88,20,5.75,few clouds
188,Lorengau,PG,-2.0226,147.2712,81.77,74,92,5.61,overcast clouds
189,Dangriga,BZ,16.9692,-88.2321,87.76,74,33,12.48,scattered clouds
190,Khorramshahr,IR,30.4397,48.1664,100.36,16,0,11.5,clear sky
191,Kandi,BJ,11.1342,2.9386,81.64,60,93,3.56,light rain
192,Chumikan,RU,54.7183,135.315,39.43,87,97,2.84,overcast clouds
193,Lavrentiya,RU,65.5833,-171.0,34.61,92,100,3.6,light rain
194,Yarada,IN,17.65,83.2667,84.52,84,20,13.04,few clouds
195,Poum,NC,-20.2333,164.0167,72.52,60,77,14.81,broken clouds
196,Knysna,ZA,-34.0363,23.0471,77.38,25,3,10.4,clear sky
197,Pizhanka,RU,57.4604,48.542,56.08,80,5,3.13,clear sky
198,Maarianhamina,AX,60.0973,19.9348,55.26,71,0,1.14,clear sky
199,Pangnirtung,CA,66.1451,-65.7125,34.27,90,21,3.49,few clouds
200,Kupang,ID,-10.1667,123.5833,75.78,83,20,8.05,few clouds
201,Saskylakh,RU,71.9167,114.0833,38.26,60,72,4.29,broken clouds
202,Huarmey,PE,-10.0681,-78.1522,68.49,75,95,8.88,overcast clouds
203,Darhan,MN,49.4867,105.9228,43.65,92,100,9.75,overcast clouds
204,Rokytne,UA,51.2796,27.214,55.98,90,43,6.44,scattered clouds
205,Grand Gaube,MU,-20.0064,57.6608,75.6,84,13,3.0,few clouds
206,Longyearbyen,SJ,78.2186,15.6401,39.04,70,0,13.8,clear sky
207,Akureyri,IS,65.6835,-18.0878,53.53,54,75,13.8,broken clouds
208,San Fernando,PH,15.0286,120.6898,83.14,83,99,1.32,overcast clouds
209,Esperance,AU,-33.8667,121.9,53.44,60,100,29.04,overcast clouds
210,Vangaindrano,MG,-23.35,47.6,65.8,79,98,11.21,overcast clouds
211,Kaitangata,NZ,-46.2817,169.8464,47.44,79,89,3.62,overcast clouds
212,Souillac,MU,-20.5167,57.5167,75.58,83,75,11.56,light rain
213,Arlit,NE,18.7369,7.3853,94.51,12,43,11.45,scattered clouds
214,Palmer,US,42.1584,-72.3287,92.64,40,75,1.01,broken clouds
215,Nokaneng,BW,-19.6667,22.2667,50.04,58,0,6.58,clear sky
216,Bilma,NE,18.6853,12.9164,91.89,16,100,5.7,overcast clouds
217,Ilulissat,GL,69.2167,-51.1,39.22,81,83,5.75,broken clouds
218,College,US,64.8569,-147.8028,72.59,37,75,3.44,broken clouds
219,Kumluca,TR,36.3703,30.2869,71.94,50,1,3.62,clear sky
220,Severo-Kurilsk,RU,50.6789,156.125,42.64,94,100,10.29,overcast clouds
221,Coquimbo,CL,-29.9533,-71.3436,55.13,87,90,5.7,overcast clouds
222,Caravelas,BR,-17.7125,-39.2481,72.84,85,6,4.81,clear sky
223,Boyolangu,ID,-8.1181,111.8935,74.64,93,48,1.79,scattered clouds
224,Airai,TL,-8.9266,125.4092,55.11,78,54,2.71,broken clouds
225,Constitucion,CL,-35.3333,-72.4167,52.45,71,100,8.79,overcast clouds
226,Darnah,LY,32.767,22.6367,70.3,71,1,11.45,clear sky
227,La Rioja,ES,42.25,-2.5,55.04,85,8,5.01,clear sky
228,Murray Bridge,AU,-35.1167,139.2667,58.86,55,99,17.9,overcast clouds
229,Pinawa,CA,50.1489,-95.8811,71.15,54,61,12.37,broken clouds
230,Port Lincoln,AU,-34.7333,135.8667,60.46,49,99,24.23,overcast clouds
231,Sitka,US,57.0531,-135.33,53.49,71,90,5.75,light rain
232,Lauro Muller,BR,-28.3928,-49.3967,60.13,99,100,1.5,moderate rain
233,Taksimo,RU,56.3444,114.8794,50.56,74,100,4.12,overcast clouds
234,Mayo,US,38.8876,-76.5119,94.95,56,27,1.01,scattered clouds
235,Lumphat,KH,13.4878,106.9816,73.0,99,100,0.51,overcast clouds
236,Benicarlo,ES,40.4165,0.4271,69.91,69,0,9.48,clear sky
237,Monticello,US,45.3055,-93.7941,93.72,33,1,17.07,clear sky
238,Shimoda,JP,34.6667,138.95,71.17,85,93,7.25,overcast clouds
239,Mount Isa,AU,-20.7333,139.5,51.57,50,0,4.61,clear sky
240,Bourail,NC,-21.5667,165.4833,70.12,59,100,7.36,overcast clouds
241,Codrington,AU,-38.2667,141.9667,56.16,63,100,21.32,overcast clouds
242,Sal Rei,CV,16.1833,-22.9167,72.16,90,27,19.13,scattered clouds
243,Bahraich,IN,27.5833,81.6,89.78,32,4,4.61,clear sky
244,Mega,ET,4.05,38.3,62.22,61,34,8.81,scattered clouds
245,Kismayo,SO,-0.3582,42.5454,76.84,84,60,14.79,light rain
246,Saint Anthony,US,45.0205,-93.218,93.34,36,1,5.01,clear sky
247,San Andres,CO,12.5847,-81.7006,86.02,74,40,18.41,scattered clouds
248,Olafsvik,IS,64.8945,-23.7142,47.32,87,100,4.38,overcast clouds
249,Shieli,KZ,44.1667,66.75,75.79,44,0,5.14,clear sky
250,Balugaon,IN,20.1667,85.1,83.95,71,69,3.11,broken clouds
251,Linxia,CN,35.6003,103.2064,54.12,73,100,3.56,overcast clouds
252,Diffa,NE,13.3154,12.6113,89.92,30,10,7.36,clear sky
253,Marfino,RU,55.7028,37.3822,62.1,80,0,3.83,clear sky
254,Ustka,PL,54.5805,16.8619,55.81,76,4,2.08,clear sky
255,Anamur,TR,36.0751,32.8369,66.22,52,0,8.05,clear sky
256,Lompoc,US,34.6391,-120.4579,75.34,76,90,5.99,overcast clouds
257,Oranjemund,NA,-28.55,16.4333,66.83,33,0,7.92,clear sky
258,Tuy Hoa,VN,13.0833,109.3,80.24,78,100,9.04,overcast clouds
259,Pisco,PE,-13.7,-76.2167,66.25,77,20,8.05,few clouds
260,Iwanai,JP,42.9744,140.5089,60.6,76,100,4.12,overcast clouds
261,Kharp,RU,66.8014,65.8081,32.58,80,6,6.06,clear sky
262,Westport,US,41.1415,-73.3579,94.28,52,1,1.01,clear sky
263,Asau,RO,46.4333,26.4,54.95,84,4,4.63,clear sky
264,Karpathos,GR,35.507,27.2132,68.56,69,1,10.76,clear sky
265,Meulaboh,ID,4.1363,96.1285,74.44,88,100,4.9,overcast clouds
266,Kenmare,IE,51.8833,-9.5833,48.96,82,100,3.62,overcast clouds
267,Narsaq,GL,60.9167,-46.05,57.42,64,100,1.34,overcast clouds
268,Kamen-Rybolov,RU,44.7481,132.0403,58.19,83,1,1.97,clear sky
269,Bang Len,TH,14.0219,100.1718,84.97,74,100,6.8,overcast clouds
270,Cayenne,GF,4.9333,-52.3333,80.64,86,90,1.01,overcast clouds
271,Sur,OM,22.5667,59.5289,83.89,78,0,13.09,clear sky
272,Lanigan,CA,51.8501,-105.0344,59.29,46,81,18.88,broken clouds
273,Mayumba,GA,-3.432,10.6554,75.52,93,98,5.48,overcast clouds
274,Batagay,RU,67.6333,134.6333,52.16,43,81,6.8,broken clouds
275,Margate,GB,51.3813,1.3862,63.03,86,57,1.99,broken clouds
276,Bengkulu,ID,-3.8004,102.2655,73.62,89,29,3.78,scattered clouds
277,Toamasina,MG,-18.1667,49.3833,68.0,94,75,8.05,light rain
278,Netanya,IL,32.3329,34.8599,71.62,69,0,2.93,clear sky
279,Alor Setar,MY,6.121,100.3601,76.98,100,20,0.0,few clouds
280,Carauari,BR,-4.8828,-66.8958,76.86,93,87,1.54,overcast clouds
281,Sabla,NG,12.7525,4.7077,81.43,62,100,1.07,overcast clouds
282,Klaksvik,FO,62.2266,-6.589,50.92,98,100,15.05,overcast clouds
283,Este,IT,45.2229,11.6587,68.13,76,100,3.09,overcast clouds
284,Egvekinot,RU,66.3167,-179.1667,37.18,63,8,1.5,clear sky
285,Katobu,ID,-4.9408,122.5276,74.3,88,58,3.62,broken clouds
286,Mitu,CO,1.1983,-70.1733,76.93,97,98,2.62,overcast clouds
287,Souris,CA,49.6172,-100.2612,77.74,29,4,21.18,clear sky
288,Tiarei,PF,-17.5333,-149.3333,86.02,75,79,11.27,broken clouds
289,Ketchikan,US,55.3422,-131.6461,53.58,87,90,12.66,light rain
290,Noyabrsk,RU,63.1994,75.4507,36.16,66,8,6.71,clear sky
291,Santa Maria,BR,-29.6842,-53.8069,56.5,100,90,10.92,light intensity drizzle
292,Cabo San Lucas,MX,22.8909,-109.9124,100.81,52,6,9.6,clear sky
293,Raudeberg,NO,61.9875,5.1352,54.27,93,9,5.97,clear sky
294,Guasdualito,VE,7.2424,-70.7324,74.43,91,100,5.1,overcast clouds
295,Sibu,MY,2.3,111.8167,75.51,94,40,5.01,scattered clouds
296,Victoria,HK,22.2855,114.1577,82.45,88,41,1.99,scattered clouds
297,Jatara,IN,25.0167,79.05,90.73,40,28,11.83,scattered clouds
298,Erenhot,CN,43.6475,111.9767,67.68,34,79,7.36,broken clouds
299,Sechura,PE,-5.5569,-80.8222,74.7,63,96,15.1,overcast clouds
300,Khromtau,KZ,50.2503,58.4347,59.56,35,100,6.76,overcast clouds
301,Walvis Bay,NA,-22.9575,14.5053,77.09,23,0,6.58,clear sky
302,Rabo De Peixe,PT,37.8,-25.5833,63.91,88,20,4.12,few clouds
303,Ixtapa,MX,20.7,-105.2,87.03,66,40,13.8,scattered clouds
304,Andenes,NO,69.3143,16.1194,55.47,66,75,3.44,broken clouds
305,Puerto Leguizamo,CO,-0.1934,-74.7819,77.32,94,85,1.79,overcast clouds
306,Tongliao,CN,43.6125,122.2653,66.47,49,9,6.26,clear sky
307,Hidalgo,MX,20.5,-99.0,79.47,31,95,14.45,overcast clouds
308,Kristianstad,SE,56.0313,14.1524,64.54,59,13,6.76,few clouds
309,Coihaique,CL,-45.5752,-72.0662,45.21,76,75,6.91,light rain
310,Bikin,RU,46.8161,134.26,61.02,68,22,3.22,few clouds
311,Vao,NC,-22.6667,167.4833,70.03,67,100,16.91,overcast clouds
312,Kasama,ZM,-10.2129,31.1808,60.85,61,100,7.31,overcast clouds
313,Taganak,PH,6.0833,118.3,77.14,73,100,3.71,overcast clouds
314,Miandrivazo,MG,-19.5167,45.4667,70.0,68,42,5.88,scattered clouds
315,Murgab,TM,37.4966,61.9714,82.27,36,1,9.13,clear sky
316,Petropavl,KZ,54.8753,69.1628,54.72,54,8,6.71,clear sky
317,Camapua,BR,-19.5314,-54.0439,76.73,40,12,4.09,few clouds
318,Rio Gallegos,AR,-51.6226,-69.2181,41.05,70,0,10.36,clear sky
319,Fairbanks,US,64.8378,-147.7164,72.61,38,40,0.0,scattered clouds
320,Machali,CL,-34.1833,-70.6667,51.08,82,90,2.64,haze
321,Omboue,GA,-1.5746,9.2618,76.17,94,84,4.83,broken clouds
322,Iqaluit,CA,63.7506,-68.5145,37.13,74,75,5.01,broken clouds
323,Vila Velha,BR,-20.3297,-40.2925,75.15,85,0,1.99,clear sky
324,Bambanglipuro,ID,-7.95,110.2833,75.67,91,16,2.39,few clouds
325,Kavieng,PG,-2.5744,150.7967,82.29,75,63,6.2,light rain
326,Port Blair,IN,11.6667,92.75,83.88,76,100,12.15,moderate rain
327,Steamboat Springs,US,40.485,-106.8317,87.73,20,1,6.91,clear sky
328,Belyy Yar,RU,53.6039,91.3903,48.09,87,0,4.7,clear sky
329,Saint-Pierre,RE,-21.3393,55.4781,73.08,88,75,25.32,heavy intensity rain
330,Anadyr,RU,64.75,177.4833,43.3,65,75,11.01,broken clouds
331,Great Falls,US,47.5002,-111.3008,64.67,25,1,8.01,clear sky
332,Kayasula,RU,44.325,45.0,59.65,91,100,10.87,moderate rain
333,Biltine,TD,14.5333,20.9167,89.65,17,80,3.74,broken clouds
334,Balabac,PH,7.9868,117.0645,82.53,80,100,8.12,overcast clouds
335,Taoudenni,ML,22.6783,-3.9836,103.03,8,89,3.96,overcast clouds
336,Abalak,RU,58.1286,68.5944,55.67,76,81,4.68,broken clouds
337,Vardo,NO,70.3705,31.1107,37.6,74,6,3.65,clear sky
338,Gigmoto,PH,13.7796,124.39,80.82,81,100,2.35,light rain
339,Healdsburg,US,38.6105,-122.8692,96.01,23,1,1.01,clear sky
340,Mosquera,CO,4.7059,-74.2302,60.89,88,75,5.75,broken clouds
341,Qui Nhon,VN,13.7667,109.2333,80.67,76,100,6.15,overcast clouds
342,Shelburne,CA,44.0787,-80.2041,88.29,69,11,9.98,few clouds
343,Peniche,PT,39.3558,-9.3811,62.08,84,0,17.13,clear sky
344,Angoram,PG,-4.0625,144.0661,73.35,100,100,1.28,overcast clouds
345,Vanimo,PG,-2.6741,141.3028,78.01,89,100,5.7,very heavy rain
346,Rio Grande,BR,-32.035,-52.0986,53.71,69,100,11.34,overcast clouds
347,Kem,RU,64.9555,34.5793,41.47,79,87,5.99,overcast clouds
348,Middelburg,ZA,-25.7751,29.4648,42.64,81,3,6.24,clear sky
349,Comodoro Rivadavia,AR,-45.8667,-67.5,49.86,53,0,12.66,clear sky
350,Okha,RU,53.5739,142.9478,36.63,97,100,13.6,overcast clouds
351,Alpena,US,45.0617,-83.4327,91.72,31,20,12.53,few clouds
352,Lokomotivnyy,RU,53.0118,60.5684,56.39,47,76,4.47,broken clouds
353,Northam,GB,51.0333,-4.2167,57.29,92,19,3.47,few clouds
354,Ust-Maya,RU,60.4167,134.5333,68.13,61,96,9.55,overcast clouds
355,Odweyne,SO,9.4092,45.064,75.22,54,0,12.84,clear sky
356,Ugoofaaru,MV,5.6667,73.0,82.49,77,99,15.9,overcast clouds
357,Vilyuysk,RU,63.7553,121.6247,50.18,85,100,7.29,light rain
358,San Rafael,AR,-34.6177,-68.3301,54.59,53,76,4.43,broken clouds
359,Itoman,JP,26.1247,127.6694,75.58,94,75,9.22,light rain
360,Novopskov,UA,49.5464,39.0899,54.91,93,50,5.95,scattered clouds
361,Kununurra,AU,-15.7667,128.7333,55.38,71,25,3.44,scattered clouds
362,Ambon,ID,-3.6954,128.1814,75.34,100,75,9.35,broken clouds
363,Clyde River,CA,70.4692,-68.5914,35.83,93,90,9.22,overcast clouds
364,Utiel,ES,39.5667,-1.2,60.66,76,27,4.7,scattered clouds
365,Lincoln,US,40.8,-96.667,85.86,61,20,4.0,few clouds
366,Sharjah,AE,25.3573,55.4033,95.16,53,0,12.08,clear sky
367,Kosh-Agach,RU,50.0,88.6667,38.39,71,3,2.8,clear sky
368,Faanui,PF,-16.4833,-151.75,81.03,76,77,11.07,broken clouds
369,Shingu,JP,33.7333,135.9833,69.06,82,100,3.76,overcast clouds
370,Talnakh,RU,69.4865,88.3972,31.42,98,100,4.41,light snow
371,Boa Vista,BR,2.8197,-60.6733,89.58,55,75,9.22,broken clouds
372,Kinsale,IE,51.7075,-8.5306,50.23,93,75,5.01,broken clouds
373,Umm Lajj,SA,25.0213,37.2685,82.78,51,0,11.63,clear sky
374,Berdigestyakh,RU,62.0989,126.6992,45.57,92,100,8.41,light rain
375,Wageningen,NL,51.9667,5.6667,59.86,84,0,6.08,clear sky
376,Palmerston North,NZ,-40.35,175.6167,59.99,90,100,4.0,overcast clouds
377,Henties Bay,NA,-22.116,14.2845,76.86,45,0,1.86,clear sky
378,Kloulklubed,PW,7.0419,134.2556,79.3,79,100,6.96,light rain
379,Kargat,RU,55.1956,80.2811,52.23,76,0,8.39,clear sky
380,Bogdanovich,RU,56.7803,62.0494,55.8,64,10,7.99,clear sky
381,Ulety,RU,51.3572,112.4849,50.63,83,65,2.93,broken clouds
382,Kawalu,ID,-7.3817,108.2082,71.37,98,87,1.1,overcast clouds
383,Gazojak,TM,41.1875,61.4036,87.35,21,13,12.15,few clouds
384,Salaga,GH,8.5508,-0.5188,76.8,80,44,6.67,light rain
385,Bendigo,AU,-36.7667,144.2833,49.86,73,100,1.01,overcast clouds
386,Poya,NC,-21.35,165.15,71.62,58,92,7.85,overcast clouds
387,Bathsheba,BB,13.2167,-59.5167,81.21,69,40,20.56,scattered clouds
388,Missoula,US,47.0166,-113.8009,51.85,28,100,5.21,overcast clouds
389,Aswan,EG,24.0934,32.907,85.21,14,3,13.6,clear sky
390,Hasaki,JP,35.7333,140.8333,68.29,84,100,1.79,overcast clouds
391,Pyapon,MM,16.2833,95.6833,82.63,79,99,7.83,overcast clouds
392,Te Anau,NZ,-45.4167,167.7167,39.78,89,15,1.19,few clouds
393,Valentin Gomez Farias,MX,28.2167,-106.5833,89.69,10,57,17.96,broken clouds
394,Kushiro,JP,42.975,144.3747,59.52,79,59,8.08,broken clouds
395,Santa Luzia,BR,-19.7697,-43.8514,72.5,64,40,3.71,scattered clouds
396,Nantucket,US,41.2835,-70.0995,84.31,68,1,11.5,clear sky
397,Cidreira,BR,-30.1811,-50.2056,63.14,76,100,10.98,overcast clouds
398,Marsa Matruh,EG,31.3525,27.2453,71.8,73,0,6.91,clear sky
399,Port Augusta,AU,-32.5,137.7667,55.54,70,5,15.48,clear sky
400,Pacific Grove,US,36.6177,-121.9166,81.45,70,1,8.99,clear sky
401,Sola,VU,-13.8833,167.55,79.47,83,90,5.75,overcast clouds
402,Dukat,RU,62.55,155.55,44.58,78,90,7.49,overcast clouds
403,Maumere,ID,-8.6199,122.2111,77.54,81,76,2.35,broken clouds
404,Changji,CN,44.0167,87.3167,61.59,55,0,3.87,clear sky
405,Homer,US,59.6425,-151.5483,69.08,68,1,16.11,clear sky
406,Grand-Lahou,CI,5.1367,-5.0242,79.57,84,70,10.09,broken clouds
407,Joshimath,IN,30.5667,79.5667,63.5,64,65,3.94,broken clouds
408,Qaqortoq,GL,60.7167,-46.0333,42.67,76,100,4.45,overcast clouds
409,Smithers,CA,54.7804,-127.1743,57.52,54,75,5.75,light rain
410,Middelkerke,BE,51.1558,2.8418,59.02,75,0,8.05,clear sky
411,Manta,EC,-0.95,-80.7333,78.58,69,75,14.97,broken clouds
412,Roding,DE,49.1964,12.5186,61.34,98,98,2.8,overcast clouds
413,Abu Samrah,SY,35.3029,37.1841,67.3,42,0,7.47,clear sky
414,Saint-Denis,FR,48.9167,2.3333,66.15,74,0,6.91,clear sky
415,Bend,US,44.0582,-121.3153,59.25,44,75,1.99,broken clouds
416,Caruray,PH,10.3094,119.0128,78.91,84,100,4.99,light rain
417,Aykhal,RU,66.0,111.5,36.97,79,92,25.3,overcast clouds
418,Salalah,OM,17.0151,54.0924,82.11,84,84,10.78,broken clouds
419,Kaoma,ZM,-14.7833,24.8,51.8,63,62,6.44,broken clouds
420,Guerrero Negro,MX,27.9769,-114.0611,71.19,57,83,16.11,broken clouds
421,Camana,PE,-16.6228,-72.7111,65.17,80,23,7.38,few clouds
422,Awbari,LY,26.5921,12.7805,84.99,16,100,10.69,overcast clouds
423,Iroquois Falls,CA,48.7669,-80.6831,69.94,85,67,10.67,broken clouds
424,Macklin,CA,52.3334,-109.9348,68.34,34,67,13.8,broken clouds
425,Laguna,US,38.421,-121.4238,94.44,30,1,7.0,clear sky
426,Sinfra,CI,6.6167,-5.9167,78.17,93,12,4.7,few clouds
427,Bitung,ID,1.4451,125.1824,76.05,81,100,6.35,light rain
428,Beidao,CN,34.5686,105.8933,66.04,64,89,1.41,overcast clouds
429,Liverpool,GB,53.4106,-2.9779,62.55,72,0,3.56,clear sky
430,Nacozari,MX,25.3366,-108.2574,99.1,38,9,15.5,clear sky
431,Half Moon Bay,US,37.4636,-122.4286,84.81,60,1,11.5,haze
432,Zhigansk,RU,66.7697,123.3711,50.7,44,100,9.69,overcast clouds
433,Kjopsvik,NO,68.097,16.3742,59.16,53,90,1.66,overcast clouds
434,Saint-Joseph,RE,-21.3667,55.6167,71.98,87,66,11.59,light rain
435,Fredericksburg,US,38.3032,-77.4605,94.95,49,75,1.99,broken clouds
436,Calabozo,VE,8.9242,-67.4293,81.75,71,100,2.84,overcast clouds
437,Jalingo,NG,8.8833,11.3667,79.23,77,70,3.71,light rain
438,Gornopravdinsk,RU,60.05,69.9,50.92,94,93,7.07,light rain
439,Sao Miguel Do Araguaia,BR,-13.275,-50.1628,77.72,47,99,4.81,overcast clouds
440,Cervo,ES,43.6702,-7.4101,59.97,86,95,8.19,overcast clouds
441,Obidos,BR,-1.9175,-55.5181,82.35,65,92,2.35,overcast clouds
442,Lopatino,RU,52.6195,45.8118,55.11,90,36,1.83,scattered clouds
443,Evensk,RU,61.95,159.2333,43.03,83,100,5.61,light rain
444,Puerto Narino,CO,-3.7703,-70.3831,87.75,94,96,1.79,overcast clouds
445,Am Timan,TD,11.0297,20.2827,79.97,61,98,7.96,light rain
446,Bima,ID,-8.4667,118.7167,73.58,94,51,2.93,broken clouds
447,Samarinda,ID,-0.5,117.15,74.14,98,100,2.15,overcast clouds
448,Waddan,LY,29.1614,16.139,81.37,20,0,10.6,clear sky
449,Bartica,GY,6.4,-58.6167,84.52,87,77,6.15,broken clouds
450,Ambilobe,MG,-13.2,49.05,71.06,89,84,3.36,broken clouds
451,Lolodorf,CM,3.2333,10.7333,70.61,100,100,1.43,overcast clouds
452,Lata,PT,40.1629,-8.3327,62.92,92,0,2.15,clear sky
453,Hambantota,LK,6.1241,81.1185,77.34,100,0,14.67,clear sky
454,Le Port,RE,-20.9373,55.2919,73.4,79,69,7.2,light rain
455,Sabang,ID,5.8933,95.3214,82.9,71,100,21.41,overcast clouds
456,Mingaora,PK,34.7758,72.3625,75.06,60,0,5.66,clear sky
457,Cap Malheureux,MU,-19.9842,57.6142,75.69,84,10,3.0,clear sky
458,Putina,PE,-15.4667,-69.4333,47.43,45,5,6.87,clear sky
459,Innisfail,AU,-17.5333,146.0333,71.24,86,95,7.25,overcast clouds
460,Frontera,MX,26.9333,-101.45,104.4,11,0,9.06,clear sky
461,Puerto Escondido,MX,15.85,-97.0667,85.62,75,50,8.84,scattered clouds
462,Beloha,MG,-25.1667,45.05,61.3,79,20,12.19,few clouds
463,Bhag,PK,29.0415,67.8239,96.96,34,0,6.87,clear sky
464,Hailar,CN,49.2,119.7,58.87,59,0,6.98,clear sky
465,Tucurui,BR,-3.7661,-49.6725,80.98,65,78,3.31,broken clouds
466,Bajil,YE,15.0584,43.2851,90.32,46,5,5.32,clear sky
467,Flinders,AU,-34.5833,150.8552,55.06,85,86,6.53,overcast clouds
468,Ancud,CL,-41.8697,-73.8203,51.22,83,100,16.13,light rain
469,Dera Bugti,PK,29.0307,69.151,88.79,44,0,4.97,clear sky
470,Jiazi,CN,22.8779,116.067,75.87,83,26,15.52,scattered clouds
471,Warrnambool,AU,-38.3833,142.4833,56.8,61,100,23.38,overcast clouds
472,Moree,AU,-29.4667,149.85,41.02,75,3,9.22,clear sky
473,Azangaro,PE,-14.9167,-70.2167,51.03,44,71,5.79,broken clouds
474,Tukrah,LY,32.5341,20.5791,70.16,66,3,5.93,clear sky
475,Stromness,GB,58.965,-3.296,52.05,77,94,2.37,overcast clouds
476,Derzhavinsk,KZ,51.1,66.3167,58.46,38,66,8.25,broken clouds
477,Vilhena,BR,-12.7406,-60.1458,84.42,54,0,5.75,light rain
478,Bonthe,SL,7.5264,-12.505,80.08,87,99,6.62,light rain
479,Samana,DO,19.2056,-69.3369,86.22,74,40,11.5,scattered clouds
480,Kutum,SD,14.2,24.6667,79.7,16,8,8.77,clear sky
481,Ongandjera,NA,-17.8833,15.0667,61.16,37,1,10.09,clear sky
482,Kaeo,NZ,-35.1,173.7833,60.33,96,100,13.85,moderate rain
483,Wilmington,US,34.2257,-77.9447,82.31,78,1,8.05,clear sky
484,Felanitx,ES,39.4696,3.1483,67.01,78,4,4.76,clear sky
485,Boca Do Acre,BR,-8.7522,-67.3978,75.25,94,95,3.85,overcast clouds
486,Ciudad Dario,NI,12.7314,-86.124,81.21,42,60,14.03,broken clouds
487,Jerome,US,42.7241,-114.5186,74.75,23,1,6.91,clear sky
488,Seoul,KR,37.5683,126.9778,67.57,82,75,3.96,broken clouds
489,Sao Joao Da Barra,BR,-21.6403,-41.0511,78.89,85,100,14.54,overcast clouds
490,Ishigaki,JP,24.3448,124.1572,78.93,100,75,2.3,broken clouds
491,Mango,US,27.9797,-82.3065,94.32,64,75,5.75,broken clouds
492,Abu Dhabi,AE,24.4667,54.3667,91.51,79,0,10.04,clear sky
493,Matara,LK,5.9485,80.5353,78.39,89,95,9.89,overcast clouds
494,Tarko-Sale,RU,64.9225,77.785,30.99,87,31,10.2,scattered clouds
495,Kanth,IN,29.0667,78.6333,87.28,38,0,3.98,clear sky
496,Turbiv,UA,49.3479,28.7212,53.73,91,18,7.14,few clouds
497,Ust-Charyshskaya Pristan,RU,52.3934,83.6635,50.4,84,1,4.38,clear sky
498,Shenzhen,CN,22.5455,114.0683,82.35,91,59,6.26,broken clouds
499,Yumen,CN,40.2833,97.2,58.3,23,78,12.15,broken clouds
500,Tyukhtet,RU,56.5389,89.3011,53.76,96,100,12.12,overcast clouds
501,Bouna,CI,9.2667,-3.0,73.58,87,56,5.59,light rain
502,Aligudarz,IR,33.4006,49.6949,65.08,20,0,6.85,clear sky
503,Alenquer,BR,-1.9417,-54.7383,86.34,66,93,4.05,overcast clouds
504,Qianan,CN,44.9932,124.0581,63.97,56,17,2.64,few clouds
505,Straumen,NO,63.8709,11.2999,59.0,97,100,4.54,overcast clouds
506,Alanya,TR,36.5438,31.9998,66.33,51,0,4.92,clear sky
507,Amahai,ID,-3.3333,128.9167,77.18,87,98,3.02,overcast clouds
508,Monterey,US,36.2505,-121.2516,75.76,23,6,11.72,clear sky
509,Wanaka,NZ,-44.7,169.15,44.78,84,47,0.56,scattered clouds
510,Puerto Varas,CL,-41.3195,-72.9854,48.42,81,75,9.28,broken clouds
511,Laje,BR,-10.1833,-40.9667,73.27,60,48,8.23,scattered clouds
512,Todos Santos,MX,23.45,-110.2167,101.01,69,14,7.43,few clouds
513,Tongchuan,CN,35.0806,109.0897,74.89,32,95,3.91,overcast clouds
514,Nuevo Imperial,PE,-13.0754,-76.3172,64.76,81,17,4.99,few clouds
515,Santa Cecilia,BR,-26.9608,-50.4269,53.96,100,100,0.63,light rain
516,Pierre,US,44.3683,-100.351,88.72,54,1,10.0,clear sky
517,Lexington,US,37.9887,-84.4777,83.52,65,1,12.12,clear sky
518,Colwyn Bay,GB,53.2948,-3.7267,57.81,82,67,2.19,broken clouds
519,Tosya,TR,41.0155,34.0401,50.97,77,3,1.77,clear sky
520,Metro,ID,-5.1131,105.3067,73.9,93,79,5.57,broken clouds
521,Maneromango,TZ,-7.1988,38.7848,71.35,93,3,4.05,clear sky
522,Tagusao,PH,9.1924,117.8141,80.38,83,100,5.75,overcast clouds
523,Covilha,PT,40.286,-7.504,57.45,66,0,8.01,clear sky
524,Berbera,SO,10.4396,45.0143,92.39,45,0,11.72,clear sky
525,Petropavlovsk-Kamchatskiy,RU,53.0452,158.6483,43.39,100,90,1.88,overcast clouds
526,Vacaria,BR,-28.5122,-50.9339,54.72,95,100,1.95,overcast clouds
527,The Valley,AI,18.217,-63.0578,82.26,78,40,14.97,scattered clouds
528,Sistranda,NO,63.7256,8.834,54.9,94,63,13.85,broken clouds
529,Ust-Nera,RU,64.5667,143.2,62.6,63,100,6.69,overcast clouds
530,Eureka,US,40.8021,-124.1637,70.66,63,60,10.0,broken clouds
531,Teguise,ES,29.0605,-13.564,64.62,77,75,15.93,broken clouds
532,Verkhoyansk,RU,67.5447,133.385,52.81,40,87,7.56,overcast clouds
533,Colonesti,RO,44.65,24.6667,58.8,88,1,7.36,clear sky
534,Baruun-Urt,MN,46.6806,113.2792,63.36,45,100,8.88,overcast clouds
535,Bombay,IN,19.0144,72.8479,84.18,79,40,3.44,haze
536,Santa Cruz,BO,-17.8,-63.1667,75.25,69,75,8.05,broken clouds
537,Surt,LY,31.2089,16.5887,74.01,46,39,12.12,scattered clouds
538,Luan,CH,46.3592,6.9759,58.37,89,75,1.66,broken clouds
539,Ngunguru,NZ,-35.6167,174.5,60.17,94,100,32.5,light rain
540,Ventspils,LV,57.3894,21.5606,51.73,100,63,0.0,fog
541,Tres Marias,MX,19.0522,-99.2431,70.3,57,74,4.41,broken clouds
542,Altay,CN,47.8667,88.1167,50.77,36,0,7.34,clear sky
543,Vasai,IN,19.47,72.8,84.29,69,17,5.97,few clouds
544,Karachi,PK,24.9056,67.0822,85.82,70,40,9.22,scattered clouds
545,Tutoia,BR,-2.7619,-42.2744,79.27,77,37,6.29,scattered clouds
546,Nadym,RU,65.5333,72.5167,35.62,71,14,7.67,few clouds
547,Ostrovnoy,RU,68.0531,39.5131,38.34,93,7,6.35,clear sky
548,Finote Selam,ET,10.7,37.2667,62.35,59,22,3.38,few clouds
549,Luba,GQ,3.4568,8.5547,76.89,80,100,1.01,overcast clouds
550,Astoria,US,46.1879,-123.8313,54.93,87,90,3.0,moderate rain
551,Findlay,US,41.0442,-83.6499,89.22,42,40,14.97,scattered clouds
552,Vigrestad,NO,58.5667,5.7,54.59,84,100,10.33,overcast clouds
553,Tual,ID,-5.6667,132.75,81.27,77,100,14.99,overcast clouds
554,Mogadishu,SO,2.0371,45.3438,78.91,88,48,20.56,scattered clouds
555,Mitchell,US,43.7094,-98.0298,94.98,34,1,11.99,clear sky
556,Pozoblanco,ES,38.3791,-4.8483,68.58,42,3,4.65,clear sky
557,Igboho,NG,8.8333,3.75,72.25,93,100,5.53,overcast clouds
558,Harrisburg,US,40.2737,-76.8844,91.69,45,1,5.01,clear sky
559,Plettenberg Bay,ZA,-34.0527,23.3716,67.95,27,1,11.01,clear sky
560,Povenets,RU,62.8487,34.8262,49.53,57,90,10.94,overcast clouds
561,Leh,IN,34.1667,77.5833,48.85,31,0,6.04,clear sky
562,Lodja,CD,-3.4833,23.4333,68.97,99,61,2.73,broken clouds
563,Gao,ML,16.6362,1.637,92.7,20,8,1.72,clear sky
564,Korla,CN,41.7597,86.1469,71.15,38,36,10.4,scattered clouds
565,Pathein,MM,16.7833,94.7333,83.17,77,95,8.5,overcast clouds
566,Shahr-E Babak,IR,30.1165,55.1186,81.32,10,39,3.62,scattered clouds
567,Soyo,AO,-6.1349,12.3689,75.69,88,23,5.14,few clouds
568,Mayskiy,RU,47.6931,40.1025,58.44,91,70,7.02,broken clouds
569,Prince Rupert,CA,54.3161,-130.3201,51.89,81,90,4.61,light rain
570,Havoysund,NO,70.9963,24.6622,40.08,67,3,8.63,clear sky
571,Yakovlevskoye,RU,55.4419,37.9506,62.46,88,0,6.71,clear sky
572,Kruisfontein,ZA,-34.0033,24.7314,57.43,21,3,8.28,clear sky
573,Abapo,BO,-18.8333,-63.4667,66.83,74,82,3.0,broken clouds
574,Tobermory,CA,45.2501,-81.6665,59.2,82,34,17.02,scattered clouds
575,Toccoa,US,34.5773,-83.3324,88.05,57,1,5.75,clear sky
576,Saqqez,IR,36.2499,46.2735,55.71,34,2,4.34,clear sky
577,Tonj,SS,7.2737,28.6822,75.45,81,17,5.03,few clouds
578,Kudat,MY,6.8837,116.8477,75.29,100,20,0.0,few clouds
579,Mahibadhoo,MV,3.7833,72.9667,82.98,73,71,15.75,broken clouds
580,Los Llanos De Aridane,ES,28.6585,-17.9182,64.15,89,75,12.53,broken clouds
581,Broken Hill,AU,-31.95,141.4333,51.51,62,23,11.5,few clouds
582,Sorland,NO,67.667,12.6934,52.38,82,99,5.57,overcast clouds
583,Oktyabrskiy,RU,54.4815,53.471,54.16,78,4,1.77,clear sky
584,Tabuk,PH,17.4189,121.4443,75.33,93,100,3.47,overcast clouds
585,Kahului,US,20.8947,-156.47,84.22,67,20,21.85,few clouds
586,Dingle,PH,10.9995,122.6711,76.44,87,100,2.21,moderate rain
587,Verkh-Usugli,RU,52.7,115.1667,59.32,68,93,1.05,overcast clouds
588,Adre,TD,13.4667,22.2,83.7,39,93,7.11,overcast clouds
589,Karatau,KZ,43.1667,70.4667,72.27,49,75,6.78,broken clouds
590,Prince George,CA,53.9166,-122.753,58.28,52,20,12.66,few clouds
591,Qiongshan,CN,20.0058,110.3542,78.78,89,0,5.39,clear sky
592,Samarai,PG,-10.6167,150.6667,78.66,87,100,15.9,overcast clouds
593,Nhulunbuy,AU,-12.2333,136.7667,77.61,78,40,6.91,scattered clouds
594,Paamiut,GL,61.994,-49.6678,38.21,98,100,1.5,moderate rain
595,Mackay,AU,-21.15,149.2,65.05,77,75,4.61,broken clouds
596,Flin Flon,CA,54.7682,-101.865,57.04,88,90,10.83,overcast clouds
597,Salinopolis,BR,-0.6136,-47.3561,78.15,86,43,9.37,scattered clouds
598,Akdepe,TM,42.0551,59.3788,80.69,28,1,8.41,clear sky
599,Kimbe,PG,-5.5502,150.1429,78.58,85,79,2.06,light rain
600,Tubuala,PA,9.5167,-79.0333,84.31,80,74,8.7,broken clouds
601,Alofi,NU,-19.0595,-169.9187,78.69,69,60,8.05,broken clouds
602,Skjervoy,NO,70.0311,20.9714,46.98,67,49,2.82,scattered clouds
603,Chimore,BO,-16.9833,-65.1333,69.31,97,73,2.66,broken clouds
604,Jinchang,CN,38.4953,102.1739,62.2,45,87,6.4,overcast clouds
605,Navahrudak,BY,53.6,25.8333,54.14,91,53,6.87,broken clouds
606,Hay River,CA,60.8156,-115.7999,48.18,61,75,13.8,broken clouds
607,Adolfo Ruiz Cortines,MX,25.75,-108.75,99.03,35,45,7.0,scattered clouds
608,Mochicahui,MX,25.9333,-108.9333,98.02,33,31,15.39,scattered clouds
609,Victor Harbor,AU,-35.5667,138.6167,62.47,75,88,1.99,overcast clouds
610,Gat,IL,31.61,34.7642,70.48,72,0,1.66,clear sky
611,Vorobyevka,RU,50.6451,40.9245,54.57,95,94,6.53,overcast clouds
612,Kalynivka,UA,49.4539,28.5261,53.58,92,22,7.34,few clouds
613,Ayacucho,PE,-13.1583,-74.2239,64.26,39,40,3.44,scattered clouds
614,Svetlogorsk,BY,52.6333,29.7333,55.44,94,64,6.17,broken clouds
615,La Ronge,CA,55.1001,-105.2842,55.65,76,90,14.97,overcast clouds
616,Sangar,RU,63.9242,127.4739,43.7,96,100,3.13,moderate rain
617,Meghraj,IN,23.5,73.5,84.16,64,20,12.35,few clouds
618,Nyakabindi,TZ,-2.6333,33.9833,61.77,75,16,5.66,few clouds
619,Viedma,AR,-40.8135,-62.9967,49.86,43,98,10.47,overcast clouds
620,Pitimbu,BR,-7.4706,-34.8086,77.59,83,39,11.9,scattered clouds
621,Biak,ID,-0.9131,122.8766,75.29,77,82,4.18,broken clouds
622,Cooma,AU,-36.2333,149.1333,38.97,87,89,3.56,overcast clouds
623,Katsuura,JP,35.1333,140.3,73.11,90,99,2.15,overcast clouds
624,Anshun,CN,26.25,105.9333,61.83,73,71,2.01,broken clouds
625,Kaiyuan,CN,23.6977,103.3037,67.64,93,99,2.21,overcast clouds
626,Tromso,NO,69.6496,18.957,54.25,46,0,10.36,clear sky
627,Tabou,CI,4.423,-7.3528,78.26,87,100,10.65,light rain
628,Zhumadian,CN,32.9794,114.0294,74.77,58,100,7.25,light rain
629,Puerto Quijarro,BO,-17.7833,-57.7667,84.09,36,24,2.24,few clouds
630,Bafq,IR,31.6128,55.4107,91.06,9,3,7.02,clear sky
631,Auki,SB,-8.7676,160.7034,82.18,74,8,2.95,clear sky
632,Lashio,MM,22.9333,97.75,67.91,98,100,0.4,overcast clouds
633,Mianyang,CN,31.4593,104.7542,75.16,52,100,4.74,light rain
634,Riom,FR,45.9167,2.9167,52.45,97,89,2.8,overcast clouds
635,Naze,JP,28.3667,129.4833,72.52,92,100,4.29,light rain
636,Maragogi,BR,-9.0122,-35.2225,75.88,84,9,8.21,clear sky
637,Saubara,BR,-12.7375,-38.7686,78.76,88,11,6.38,few clouds
638,Komsomolskiy,UZ,40.4272,71.7189,84.92,23,77,18.41,broken clouds
639,Ayan,RU,56.45,138.1667,41.14,91,99,4.36,overcast clouds
640,Funtua,NG,11.5233,7.3081,74.93,68,57,8.14,broken clouds
641,Mehamn,NO,71.0357,27.8492,39.6,69,6,0.94,clear sky
642,Nizwa,OM,22.9333,57.5333,84.54,62,0,3.6,clear sky
643,Morro Agudo,BR,-20.7314,-48.0578,78.82,43,40,3.4,scattered clouds
644,Ipojuca,BR,-8.3989,-35.0639,78.71,88,30,6.64,scattered clouds
645,Chicama,PE,-7.8447,-79.1469,66.74,75,96,6.08,overcast clouds
646,Martapura,ID,-3.4167,114.85,77.09,100,20,1.16,few clouds
647,Thika,KE,-1.0333,37.0693,64.02,83,94,1.52,overcast clouds
648,Ca Mau,VN,9.1769,105.15,79.43,85,98,6.22,overcast clouds
649,Tucupita,VE,9.0622,-62.051,77.52,88,45,5.55,scattered clouds
650,Kysyl-Syr,RU,63.8986,122.7617,48.7,88,100,7.85,light rain
651,Sakaiminato,JP,35.55,133.2333,66.18,88,75,5.75,broken clouds
652,Namatanai,PG,-3.6667,152.4333,81.05,81,100,3.76,light rain
653,Nouadhibou,MR,20.931,-17.0347,67.98,77,93,24.16,sand
654,Kamakwie,SL,9.5,-12.2333,79.25,85,62,8.7,light rain
655,Sabha,LY,27.0377,14.4283,83.5,17,60,11.92,broken clouds
656,Riachao,BR,-7.3619,-46.6172,78.75,47,87,2.84,overcast clouds
657,Tarakan,ID,3.3,117.6333,76.5,100,20,4.61,few clouds
658,Havelock,US,34.8791,-76.9013,86.23,81,20,7.0,few clouds
659,Mandalgovi,MN,45.7625,106.2708,44.62,78,5,20.42,clear sky
660,Gorontalo,ID,0.5412,123.0595,74.14,95,100,2.62,overcast clouds
661,Rio Bueno,CL,-40.3167,-72.9667,48.34,84,100,5.01,light rain
662,Xuanhua,CN,40.6103,115.0447,69.3,42,100,7.36,light rain
663,Bay Roberts,CA,47.5999,-53.2648,48.06,81,80,10.0,broken clouds
664,Vikhorevka,RU,56.1201,101.1636,45.99,90,18,6.08,few clouds
665,Urengoy,RU,65.9667,78.3667,33.44,78,37,6.44,scattered clouds
666,Namibe,AO,-15.1961,12.1522,74.07,54,50,8.39,scattered clouds
667,Dutse,NG,11.7594,9.3392,85.48,43,49,18.05,scattered clouds
668,Najran,SA,17.4924,44.1277,83.05,19,8,5.12,clear sky
669,Yarmouth,US,41.7057,-70.2286,89.65,41,1,5.01,clear sky
670,Buchanan,LR,5.8808,-10.0467,76.96,84,99,9.08,light rain
671,Zenica,BA,44.2014,17.9064,63.01,95,92,1.77,light rain
